{
"type": "FeatureCollection",
"name": "Schools_Catchments_Open",
"crs": { "type": "name", "properties": { "name": "urn:ogc:def:crs:OGC:1.3:CRS84" } },
"features": [
{ "type": "Feature", "properties": { "OBJECTID_1": 1, "UPRN": "906700136494", "SEEDCODE": 8458138, "PROPERTY_NAME": "Bannerman High School", "ADDRESS": "Glasgow Road, Glasgow G69 7NS", "HYPERLINK": "https://www.glasgow.gov.uk/index.aspx?articleid=17222", "TYPE": "ND Secondary" }, "geometry": { "type": "Point", "coordinates": [ -4.122190930739071, 55.849145457307998 ] } },
{ "type": "Feature", "properties": { "OBJECTID_1": 2, "UPRN": "906700251940", "SEEDCODE": 8434034, "PROPERTY_NAME": "Castlemilk High School", "ADDRESS": "223 Castlemilk Drive, Glasgow G45 9JY", "HYPERLINK": "https://www.glasgow.gov.uk/index.aspx?articleid=17241", "TYPE": "ND Secondary" }, "geometry": { "type": "Point", "coordinates": [ -4.229637677501517, 55.801072793626588 ] } },
{ "type": "Feature", "properties": { "OBJECTID_1": 3, "UPRN": "906700024396", "SEEDCODE": 8432236, "PROPERTY_NAME": "Cleveden Secondary School", "ADDRESS": "42 Cleveden Road, Glasgow G12 OJW", "HYPERLINK": "https://www.glasgow.gov.uk/index.aspx?articleid=17234", "TYPE": "ND Secondary" }, "geometry": { "type": "Point", "coordinates": [ -4.302991650833367, 55.88657040039373 ] } },
{ "type": "Feature", "properties": { "OBJECTID_1": 4, "UPRN": "906700127899", "SEEDCODE": 8433232, "PROPERTY_NAME": "Eastbank Academy", "ADDRESS": "26 Academy Street, Glasgow G32 9AA", "HYPERLINK": "https://www.glasgow.gov.uk/index.aspx?articleid=17255", "TYPE": "ND Secondary" }, "geometry": { "type": "Point", "coordinates": [ -4.162917274126309, 55.85018639807825 ] } },
{ "type": "Feature", "properties": { "OBJECTID_1": 5, "UPRN": "906700182881", "SEEDCODE": 8433836, "PROPERTY_NAME": "Govan High School", "ADDRESS": "12 Ardnish Street, Glasgow G51 4NB", "HYPERLINK": "https://www.glasgow.gov.uk/index.aspx?articleid=17265", "TYPE": "ND Secondary" }, "geometry": { "type": "Point", "coordinates": [ -4.332409225467794, 55.858028975994813 ] } },
{ "type": "Feature", "properties": { "OBJECTID_1": 6, "UPRN": "906700084225", "SEEDCODE": 8434239, "PROPERTY_NAME": "Hillhead High School", "ADDRESS": "Oakfield Avenue, Glasgow G12 8LJ", "HYPERLINK": "https://www.glasgow.gov.uk/index.aspx?articleid=17271", "TYPE": "ND Secondary" }, "geometry": { "type": "Point", "coordinates": [ -4.285328295723668, 55.874449182570928 ] } },
{ "type": "Feature", "properties": { "OBJECTID_1": 7, "UPRN": "906700246950", "SEEDCODE": 8434336, "PROPERTY_NAME": "Hillpark Secondary School", "ADDRESS": "36 Cairngorm Road, Glasgow G43 2XA", "HYPERLINK": "https://www.glasgow.gov.uk/index.aspx?articleid=17276", "TYPE": "ND Secondary" }, "geometry": { "type": "Point", "coordinates": [ -4.299586895550869, 55.815824669250134 ] } },
{ "type": "Feature", "properties": { "OBJECTID_1": 8, "UPRN": "906700079634", "SEEDCODE": 8434638, "PROPERTY_NAME": "Hyndland Secondary School", "ADDRESS": "9 Lauderdale Gardens, Glasgow G12 9RQ", "HYPERLINK": "https://www.glasgow.gov.uk/index.aspx?articleid=17290", "TYPE": "ND Secondary" }, "geometry": { "type": "Point", "coordinates": [ -4.309914102436932, 55.877033702150776 ] } },
{ "type": "Feature", "properties": { "OBJECTID_1": 9, "UPRN": "906700264786", "SEEDCODE": 8435138, "PROPERTY_NAME": "King's Park Secondary School", "ADDRESS": "14 Fetlar Drive, Glasgow G44 5BL", "HYPERLINK": "https://www.glasgow.gov.uk/index.aspx?articleid=17292", "TYPE": "ND Secondary" }, "geometry": { "type": "Point", "coordinates": [ -4.247885491956655, 55.813727663807285 ] } },
{ "type": "Feature", "properties": { "OBJECTID_1": 10, "UPRN": "906700072470", "SEEDCODE": 8435634, "PROPERTY_NAME": "Knightswood Secondary School", "ADDRESS": "60 Knightswood Road, Glasgow G13 2XD", "HYPERLINK": "https://www.glasgow.gov.uk/index.aspx?articleid=17247", "TYPE": "ND Secondary" }, "geometry": { "type": "Point", "coordinates": [ -4.337950130278841, 55.89093795500942 ] } },
{ "type": "Feature", "properties": { "OBJECTID_1": 11, "UPRN": "906700072470", "SEEDCODE": 8435731, "PROPERTY_NAME": "Lochend Community High School", "ADDRESS": "20 Cairnbrook Road, Glasgow G34 0NZ", "HYPERLINK": "https://www.glasgow.gov.uk/index.aspx?articleid=17288", "TYPE": "ND Secondary" }, "geometry": { "type": "Point", "coordinates": [ -4.107779152517093, 55.868434876878752 ] } },
{ "type": "Feature", "properties": { "OBJECTID_1": 12, "UPRN": "906700275763", "SEEDCODE": 8436932, "PROPERTY_NAME": "Shawlands Academy", "ADDRESS": "31 Moss-side Road, Glasgow G41 3TR", "HYPERLINK": "https://www.glasgow.gov.uk/index.aspx?articleid=17263", "TYPE": "ND Secondary" }, "geometry": { "type": "Point", "coordinates": [ -4.283748756429708, 55.830934529043951 ] } },
{ "type": "Feature", "properties": { "OBJECTID_1": 13, "UPRN": "906700107335", "SEEDCODE": 8437130, "PROPERTY_NAME": "Smithycroft Secondary School", "ADDRESS": "282 Smithycroft Road, Glasgow G33 2QU", "HYPERLINK": "https://www.glasgow.gov.uk/index.aspx?articleid=17254", "TYPE": "ND Secondary" }, "geometry": { "type": "Point", "coordinates": [ -4.183715114627426, 55.871241737269351 ] } },
{ "type": "Feature", "properties": { "OBJECTID_1": 14, "UPRN": "906700381034", "SEEDCODE": 8431639, "PROPERTY_NAME": "Springburn Academy", "ADDRESS": "151 Edgefauld Road, Glasgow G21 4JL", "HYPERLINK": "https://www.glasgow.gov.uk/index.aspx?articleid=17245", "TYPE": "ND Secondary" }, "geometry": { "type": "Point", "coordinates": [ -4.227910529518695, 55.885920706901913 ] } },
{ "type": "Feature", "properties": { "OBJECTID_1": 15, "UPRN": "906700201073", "SEEDCODE": 8439532, "PROPERTY_NAME": "Whitehill Secondary School", "ADDRESS": "280 Onslow Drive, Glasgow G31 2QF", "HYPERLINK": "https://www.glasgow.gov.uk/index.aspx?articleid=17294", "TYPE": "ND Secondary" }, "geometry": { "type": "Point", "coordinates": [ -4.213015229920579, 55.86091550875723 ] } },
{ "type": "Feature", "properties": { "OBJECTID_1": 16, "UPRN": "906700381702", "SEEDCODE": 8436339, "PROPERTY_NAME": "Rosshall Academy", "ADDRESS": "131 Crookston Road, Glasgow G52 3QF", "HYPERLINK": "https://www.glasgow.gov.uk/index.aspx?articleid=17257", "TYPE": "ND Secondary" }, "geometry": { "type": "Point", "coordinates": [ -4.363452733191789, 55.841910663133369 ] } },
{ "type": "Feature", "properties": { "OBJECTID_1": 17, "UPRN": "906700170021", "SEEDCODE": 8432031, "PROPERTY_NAME": "Bellahouston Academy", "ADDRESS": "30 Gower Terrace, Glasgow G41 5QE", "HYPERLINK": "https://www.glasgow.gov.uk/index.aspx?articleid=17224", "TYPE": "ND Secondary" }, "geometry": { "type": "Point", "coordinates": [ -4.300474581088223, 55.848175134693179 ] } },
{ "type": "Feature", "properties": { "OBJECTID_1": 18, "UPRN": "906700012289", "SEEDCODE": 8432627, "PROPERTY_NAME": "Glasgow Gaelic School", "ADDRESS": "147 Berkeley Street, Glasgow G3 7HP", "HYPERLINK": "https://www.glasgow.gov.uk/index.aspx?articleid=18093", "TYPE": "ND Secondary" }, "geometry": { "type": "Point", "coordinates": [ -4.279977209646406, 55.8645245524649 ] } },
{ "type": "Feature", "properties": { "OBJECTID_1": 19, "UPRN": "906700347618", "SEEDCODE": 8459932, "PROPERTY_NAME": "Drumchapel High School", "ADDRESS": "45 Cally Avenue, Glasgow G15 7SQ", "HYPERLINK": "https://www.glasgow.gov.uk/index.aspx?articleid=17252", "TYPE": "ND Secondary" }, "geometry": { "type": "Point", "coordinates": [ -4.366637929130902, 55.913851344860127 ] } }
]
}
